$GPGGA,092547.20,5157.89111643,N,04806.03913471,E,1,34,0.5,100.3851,M,-1.6215,M,02,999*4F
$GNVTG,28.858,T,17.799,M,0.05550,N,0.10279,K,D*3E
$GPGGA,092547.30,5157.89111607,N,04806.03913459,E,1,34,0.5,100.3837,M,-1.6215,M,02,999*44
$GNVTG,191.772,T,180.713,M,0.01353,N,0.02505,K,D*39
$GPGGA,092547.40,5157.89111553,N,04806.03913410,E,1,34,0.5,100.3834,M,-1.6215,M,02,999*4F
$GNVTG,209.494,T,198.434,M,0.02205,N,0.04084,K,D*34
$GPGGA,092547.50,5157.89111610,N,04806.03913444,E,1,34,0.5,100.3844,M,-1.6215,M,02,999*4C
$GNVTG,20.222,T,9.163,M,0.02184,N,0.04044,K,D*0E
$GPGGA,092547.60,5157.89111644,N,04806.03913540,E,1,34,0.5,100.3842,M,-1.6215,M,01,999*4E
$GNVTG,60.723,T,49.663,M,0.02466,N,0.04566,K,D*31
$GPGGA,092547.70,5157.89111625,N,04806.03913491,E,1,34,0.5,100.3870,M,-1.6215,M,01,999*44
$GNVTG,237.574,T,226.514,M,0.01288,N,0.02386,K,D*32
$GPGGA,092547.80,5157.89111562,N,04806.03913473,E,1,34,0.5,100.3838,M,-1.6215,M,01,999*4B
$GNVTG,190.398,T,179.338,M,0.02284,N,0.04230,K,D*3C
$GPGGA,092547.90,5157.89111644,N,04806.03913418,E,1,34,0.5,100.3837,M,-1.6215,M,01,999*4F
$GNVTG,337.358,T,326.298,M,0.03175,N,0.05879,K,D*36
$GPGGA,092548.00,5157.89111609,N,04806.03913544,E,1,34,0.5,100.3860,M,-1.6215,M,02,999*49
$GNZDA,092548.00,02,12,2022,,*79
$GNVTG,114.092,T,103.033,M,0.03067,N,0.05680,K,D*3C
$GPGGA,092548.10,5157.89111595,N,04806.03913468,E,1,34,0.5,100.3844,M,-1.6215,M,02,999*47
$GNVTG,253.634,T,242.574,M,0.01748,N,0.03237,K,D*30
$GPGGA,092548.20,5157.89111632,N,04806.03913524,E,1,34,0.5,100.3828,M,-1.6215,M,02,999*49
$GNVTG,42.606,T,31.547,M,0.01828,N,0.03385,K,D*34
$GPGGA,092548.30,5157.89111635,N,04806.03913476,E,1,34,0.5,100.3835,M,-1.6215,M,02,999*45
$GNVTG,274.415,T,263.355,M,0.01065,N,0.01973,K,D*33
$GPGGA,092548.40,5157.89111620,N,04806.03913499,E,1,34,0.5,100.3841,M,-1.6215,M,02,999*44
$GNVTG,135.173,T,124.113,M,0.00730,N,0.01351,K,D*3C
$GPGGA,092548.50,5157.89111599,N,04806.03913463,E,1,34,0.5,100.3851,M,-1.6215,M,02,999*40
$GNVTG,226.796,T,215.736,M,0.01110,N,0.02055,K,D*31
$GPGGA,092548.60,5157.89111604,N,04806.03913482,E,1,34,0.5,100.3826,M,-1.6215,M,01,999*48
$GNVTG,67.327,T,56.267,M,0.00454,N,0.00840,K,D*36
$GPGGA,092548.70,5157.89111620,N,04806.03913452,E,1,34,0.5,100.3815,M,-1.6215,M,01,999*42
$GNVTG,310.203,T,299.143,M,0.00883,N,0.01635,K,D*3D
$GPGGA,092548.80,5157.89111683,N,04806.03913517,E,1,34,0.5,100.3819,M,-1.6215,M,01,999*48
$GNVTG,32.607,T,21.547,M,0.02708,N,0.05016,K,D*32
$GPGGA,092548.90,5157.89111676,N,04806.03913563,E,1,34,0.5,100.3827,M,-1.6215,M,01,999*4D
$GNVTG,105.176,T,94.116,M,0.01054,N,0.01952,K,D*08
$GPGGA,092549.00,5157.89111623,N,04806.03913509,E,1,34,0.5,100.3826,M,-1.6215,M,02,999*4B
$GNZDA,092549.00,02,12,2022,,*78
$GNVTG,212.504,T,201.444,M,0.02247,N,0.04161,K,D*3E
$GPGGA,092549.10,5157.89111558,N,04806.03913427,E,1,34,0.5,100.3813,M,-1.6215,M,02,999*4E
$GNVTG,217.726,T,206.666,M,0.02979,N,0.05517,K,D*3E
$GPGGA,092549.20,5157.89111530,N,04806.03913411,E,1,34,0.5,100.3818,M,-1.6215,M,02,999*4D
$GNVTG,199.678,T,188.619,M,0.01042,N,0.01930,K,D*33
$GPGGA,092549.30,5157.89111586,N,04806.03913483,E,1,34,0.5,100.3817,M,-1.6215,M,02,999*45
$GNVTG,38.636,T,27.576,M,0.02582,N,0.04781,K,D*36
$GPGGA,092549.40,5157.89111589,N,04806.03913486,E,1,34,0.5,100.3815,M,-1.6215,M,02,999*4A
$GNVTG,39.758,T,28.698,M,0.00108,N,0.00200,K,D*3E
$GPGGA,092549.50,5157.89111557,N,04806.03913406,E,1,34,0.5,100.3817,M,-1.6215,M,02,999*42
$GNVTG,237.103,T,226.044,M,0.02136,N,0.03955,K,D*36
$GPGGA,092549.60,5157.89111509,N,04806.03913488,E,1,34,0.5,100.3869,M,-1.6215,M,01,999*46
$GNVTG,133.032,T,121.972,M,0.02498,N,0.04626,K,D*37
$GPGGA,092549.70,5157.89111539,N,04806.03913525,E,1,34,0.5,100.3859,M,-1.6215,M,01,999*41
$GNVTG,37.889,T,26.829,M,0.01336,N,0.02474,K,D*30
$GPGGA,092549.80,5157.89111439,N,04806.03913304,E,1,34,0.5,100.3850,M,-1.6215,M,01,999*43
$GNVTG,233.778,T,222.718,M,0.06089,N,0.11278,K,D*34
$GPGGA,092549.90,5157.89111492,N,04806.03913421,E,1,34,0.5,100.3862,M,-1.6215,M,01,999*42
$GNVTG,53.781,T,42.721,M,0.03233,N,0.05988,K,D*3F
$GPGGA,092550.00,5157.89111510,N,04806.03913473,E,1,34,0.5,100.3852,M,-1.6215,M,02,999*4F
$GNZDA,092550.00,02,12,2022,,*70
$GNVTG,59.981,T,48.922,M,0.01339,N,0.02479,K,D*31
$GPGGA,092550.10,5157.89111522,N,04806.03913526,E,1,34,0.5,100.3865,M,-1.6215,M,02,999*4A
$GNVTG,70.060,T,59.001,M,0.01255,N,0.02325,K,D*31
$GPGGA,092550.20,5157.89111456,N,04806.03913403,E,1,34,0.5,100.3851,M,-1.6215,M,02,999*4A
$GNVTG,229.121,T,218.061,M,0.03644,N,0.06749,K,D*36
$GPGGA,092550.30,5157.89111500,N,04806.03913474,E,1,34,0.5,100.3891,M,-1.6215,M,02,999*45
$GNVTG,45.328,T,34.269,M,0.02235,N,0.04138,K,D*32
$GPGGA,092550.40,5157.89111471,N,04806.03913446,E,1,34,0.5,100.3845,M,-1.6215,M,02,999*4D
$GNVTG,211.272,T,200.212,M,0.01185,N,0.02195,K,D*3C
$GPGGA,092550.50,5157.89111461,N,04806.03913414,E,1,34,0.5,100.3851,M,-1.6215,M,02,999*4F
$GNVTG,242.130,T,231.071,M,0.00808,N,0.01496,K,D*32
$GPGGA,092550.60,5157.89111584,N,04806.03913547,E,1,34,0.5,100.3843,M,-1.6215,M,01,999*41
$GNVTG,33.783,T,22.723,M,0.05331,N,0.09873,K,D*33
$GPGGA,092550.70,5157.89111527,N,04806.03913501,E,1,34,0.5,100.3854,M,-1.6215,M,01,999*4D
$GNVTG,206.647,T,195.588,M,0.02287,N,0.04235,K,D*3E
$GPGGA,092550.80,5157.89111560,N,04806.03913628,E,1,34,0.5,100.3852,M,-1.6215,M,01,999*4F
$GNVTG,67.381,T,56.321,M,0.03054,N,0.05655,K,D*31
$GPGGA,092550.90,5157.89111514,N,04806.03913503,E,1,34,0.5,100.3838,M,-1.6215,M,01,999*4B
$GNVTG,239.563,T,228.503,M,0.03227,N,0.05977,K,D*36
$GPGGA,092551.00,5157.89111492,N,04806.03913556,E,1,34,0.5,100.3859,M,-1.6215,M,02,999*48
$GNZDA,092551.00,02,12,2022,,*71
$GNVTG,124.870,T,113.810,M,0.01428,N,0.02644,K,D*31
$GPGGA,092551.10,5157.89111469,N,04806.03913536,E,1,34,0.5,100.3842,M,-1.6215,M,02,999*41
$GNVTG,208.403,T,197.343,M,0.00932,N,0.01726,K,D*34
$GPGGA,092551.20,5157.89111470,N,04806.03913465,E,1,34,0.5,100.3829,M,-1.6215,M,02,999*40
$GNVTG,271.828,T,260.768,M,0.01580,N,0.02926,K,D*30
$GPGGA,092551.30,5157.89111516,N,04806.03913383,E,1,34,0.5,100.3823,M,-1.6215,M,02,999*45
$GNVTG,311.999,T,300.939,M,0.02436,N,0.04512,K,D*33
$GPGGA,092551.40,5157.89111549,N,04806.03913459,E,1,34,0.5,100.3872,M,-1.6215,M,02,999*4C
$GNVTG,54.606,T,43.547,M,0.02064,N,0.03823,K,D*32
$GPGGA,092551.50,5157.89111604,N,04806.03913455,E,1,34,0.5,100.3911,M,-1.6215,M,02,999*4F
$GNVTG,357.238,T,346.178,M,0.01998,N,0.03701,K,D*33
$GPGGA,092551.60,5157.89111312,N,04806.03913478,E,1,34,0.5,100.3983,M,-1.6215,M,01,999*49
$GNVTG,177.148,T,166.088,M,0.10554,N,0.19546,K,D*3F
$GPGGA,092551.70,5157.89110885,N,04806.03914170,E,1,34,0.5,100.4026,M,-1.6215,M,01,999*47
$GNVTG,134.977,T,123.917,M,0.21761,N,0.40301,K,D*3D
$GPGGA,092551.80,5157.89110140,N,04806.03915566,E,1,34,0.5,100.4047,M,-1.6215,M,01,999*4D
$GNVTG,130.823,T,119.764,M,0.41083,N,0.76086,K,D*3E
$GPGGA,092551.90,5157.89109102,N,04806.03917545,E,1,34,0.5,100.4063,M,-1.6215,M,01,999*47
$GNVTG,130.337,T,119.278,M,0.57825,N,1.07091,K,D*3A
$GPGGA,092552.00,5157.89107727,N,04806.03920013,E,1,34,0.5,100.4074,M,-1.6215,M,02,999*45
$GNZDA,092552.00,02,12,2022,,*72
$GNVTG,132.030,T,120.970,M,0.73992,N,1.37034,K,D*32
$GPGGA,092552.10,5157.89106313,N,04806.03922914,E,1,34,0.5,100.4058,M,-1.6215,M,02,999*44
$GNVTG,128.280,T,117.221,M,0.82294,N,1.52409,K,D*31
$GPGGA,092552.20,5157.89104619,N,04806.03926381,E,1,34,0.5,100.4069,M,-1.6215,M,02,999*4A
$GNVTG,128.347,T,117.288,M,0.98420,N,1.82274,K,D*3B
$GPGGA,092552.30,5157.89102759,N,04806.03930528,E,1,34,0.5,100.4071,M,-1.6215,M,02,999*43
$GNVTG,125.984,T,114.924,M,1.14119,N,2.11349,K,D*31
$GPGGA,092552.40,5157.89100817,N,04806.03935398,E,1,34,0.5,100.4110,M,-1.6215,M,02,999*4D
$GNVTG,122.844,T,111.784,M,1.29094,N,2.39083,K,D*3F
$GPGGA,092552.50,5157.89098615,N,04806.03940961,E,1,34,0.5,100.4136,M,-1.6215,M,02,999*4A
$GNVTG,122.654,T,111.595,M,1.47122,N,2.72469,K,D*39
$GPGGA,092552.60,5157.89096214,N,04806.03947022,E,1,34,0.5,100.4102,M,-1.6215,M,02,999*4C
$GNVTG,122.675,T,111.616,M,1.60331,N,2.96934,K,D*38
$GPGGA,092552.70,5157.89093398,N,04806.03953624,E,1,34,0.5,100.4136,M,-1.6215,M,02,999*4F
$GNVTG,124.626,T,113.566,M,1.78660,N,3.30879,K,D*33
$GPGGA,092552.80,5157.89090356,N,04806.03960660,E,1,34,0.5,100.4149,M,-1.6215,M,02,999*49
$GNVTG,124.985,T,113.925,M,1.91237,N,3.54171,K,D*3C
$GPGGA,092552.90,5157.89086851,N,04806.03968332,E,1,34,0.5,100.4137,M,-1.6215,M,02,999*40
$GNVTG,126.485,T,115.425,M,2.12459,N,3.93475,K,D*34
$GPGGA,092553.00,5157.89083254,N,04806.03976654,E,1,34,0.5,100.4150,M,-1.6215,M,03,999*48
$GNZDA,092553.00,02,12,2022,,*73
$GNVTG,124.985,T,113.926,M,2.26185,N,4.18895,K,D*36
$GPGGA,092553.10,5157.89079434,N,04806.03985865,E,1,34,0.5,100.4193,M,-1.6215,M,03,999*43
$GNVTG,123.871,T,112.811,M,2.47039,N,4.57516,K,D*33
$GPGGA,092553.20,5157.89075580,N,04806.03996147,E,1,33,0.5,100.4189,M,-1.6215,M,03,999*45
$GNVTG,121.248,T,110.189,M,2.67819,N,4.96002,K,D*3E
$GPGGA,092553.30,5157.89071296,N,04806.04007026,E,1,34,0.5,100.4197,M,-1.6215,M,03,999*48
$GNVTG,122.519,T,111.460,M,2.87294,N,5.32068,K,D*3F
$GPGGA,092553.40,5157.89066966,N,04806.04019001,E,1,34,0.5,100.4194,M,-1.6215,M,03,999*44
$GNVTG,120.345,T,109.285,M,3.08985,N,5.72241,K,D*36
$GPGGA,092553.50,5157.89062437,N,04806.04031899,E,1,34,0.5,100.4187,M,-1.6215,M,03,999*49
$GNVTG,119.614,T,108.555,M,3.30341,N,6.11791,K,D*31
$GPGGA,092553.60,5157.89058242,N,04806.04046428,E,1,34,0.5,100.4196,M,-1.6215,M,03,999*41
$GNVTG,115.055,T,103.995,M,3.57133,N,6.61411,K,D*3F
$GPGGA,092553.70,5157.89054302,N,04806.04062060,E,1,34,0.5,100.4121,M,-1.6215,M,03,999*4B
$GNVTG,112.196,T,101.136,M,3.75960,N,6.96278,K,D*3A
$GPGGA,092553.80,5157.89050692,N,04806.04078403,E,1,34,0.5,100.4084,M,-1.6215,M,03,999*48
$GNVTG,109.677,T,98.618,M,3.86495,N,7.15789,K,D*08
$GPGGA,092553.90,5157.89046875,N,04806.04094654,E,1,34,0.5,100.4035,M,-1.6215,M,03,999*41
$GNVTG,110.816,T,99.757,M,3.87138,N,7.16979,K,D*03
$GPGGA,092554.00,5157.89043295,N,04806.04111125,E,1,34,0.5,100.3974,M,-1.6215,M,04,999*4F
$GNZDA,092554.00,02,12,2022,,*74
$GNVTG,109.387,T,98.327,M,3.88805,N,7.20067,K,D*01
$GPGGA,092554.10,5157.89039669,N,04806.04127518,E,1,34,0.5,100.3975,M,-1.6216,M,04,999*49
$GNVTG,109.699,T,98.639,M,3.87742,N,7.18098,K,D*09
$GPGGA,092554.20,5157.89036389,N,04806.04144065,E,1,34,0.5,100.4013,M,-1.6216,M,04,999*4A
$GNVTG,107.792,T,96.732,M,3.86965,N,7.16660,K,D*0C
$GPGGA,092554.30,5157.89033343,N,04806.04160585,E,1,34,0.5,100.4027,M,-1.6216,M,04,999*42
$GNVTG,106.619,T,95.560,M,3.83888,N,7.10961,K,D*06
$GPGGA,092554.40,5157.89030558,N,04806.04177124,E,1,34,0.5,100.4104,M,-1.6216,M,04,999*43
$GNVTG,105.247,T,94.188,M,3.81731,N,7.06965,K,D*05
$GPGGA,092554.50,5157.89028066,N,04806.04193892,E,1,34,0.5,100.4156,M,-1.6216,M,04,999*4A
$GNVTG,103.527,T,92.467,M,3.84033,N,7.11229,K,D*05
$GPGGA,092554.60,5157.89025463,N,04806.04211454,E,1,34,0.5,100.4088,M,-1.6216,M,01,999*4D
$GNVTG,103.495,T,92.436,M,4.02169,N,7.44817,K,D*09
$GPGGA,092554.70,5157.89022844,N,04806.04229507,E,1,34,0.5,100.3996,M,-1.6216,M,01,999*4F
$GNVTG,103.215,T,92.155,M,4.12937,N,7.64760,K,D*08
$GPGGA,092554.80,5157.89020055,N,04806.04248079,E,1,34,0.5,100.3880,M,-1.6216,M,01,999*47
$GNVTG,103.664,T,92.604,M,4.25600,N,7.88211,K,D*07
$GPGGA,092554.90,5157.89017571,N,04806.04267249,E,1,34,0.5,100.3807,M,-1.6216,M,01,999*42
$GNVTG,101.849,T,90.789,M,4.36162,N,8.07772,K,D*0B
$GPGGA,092555.00,5157.89015153,N,04806.04286500,E,1,34,0.5,100.3803,M,-1.6216,M,02,999*4E
$GNZDA,092555.00,02,12,2022,,*75
$GNVTG,101.492,T,90.432,M,4.37438,N,8.10134,K,D*0B
$GPGGA,092555.10,5157.89013312,N,04806.04305746,E,1,34,0.5,100.3850,M,-1.6216,M,02,999*42
$GNVTG,98.802,T,87.742,M,4.33688,N,8.03191,K,D*3D
$GPGGA,092555.20,5157.89011586,N,04806.04324901,E,1,34,0.5,100.4006,M,-1.6216,M,02,999*4A
$GNVTG,98.299,T,87.239,M,4.31046,N,7.98297,K,D*32
$GPGGA,092555.30,5157.89009617,N,04806.04344082,E,1,34,0.5,100.4182,M,-1.6216,M,02,999*40
$GNVTG,99.437,T,88.378,M,4.32982,N,8.01883,K,D*38
$GPGGA,092555.40,5157.89007651,N,04806.04364008,E,1,34,0.5,100.4255,M,-1.6217,M,02,999*43
$GNVTG,99.075,T,88.016,M,4.49315,N,8.32131,K,D*39
$GPGGA,092555.50,5157.89005475,N,04806.04384786,E,1,34,0.5,100.4183,M,-1.6217,M,02,999*43
$GNVTG,99.623,T,88.564,M,4.69286,N,8.69118,K,D*30
$GPGGA,092555.60,5157.89003484,N,04806.04406363,E,1,34,0.5,100.3973,M,-1.6217,M,01,999*49
$GNVTG,98.496,T,87.436,M,4.85795,N,8.99693,K,D*3A
$GPGGA,092555.70,5157.89001271,N,04806.04428533,E,1,34,0.5,100.3795,M,-1.6217,M,01,999*4F
$GNVTG,99.178,T,88.118,M,5.00073,N,9.26135,K,D*35
$GPGGA,092555.80,5157.88999250,N,04806.04450982,E,1,34,0.5,100.3672,M,-1.6217,M,01,999*4B
$GNVTG,98.295,T,87.235,M,5.05180,N,9.35593,K,D*35
$GPGGA,092555.90,5157.88997203,N,04806.04473594,E,1,34,0.5,100.3646,M,-1.6217,M,01,999*4F
$GNVTG,98.334,T,87.274,M,5.08884,N,9.42452,K,D*36
$GPGGA,092556.00,5157.88995299,N,04806.04496316,E,1,34,0.5,100.3718,M,-1.6217,M,02,999*4A
$GNZDA,092556.00,02,12,2022,,*76
$GNVTG,97.726,T,86.666,M,5.10609,N,9.45647,K,D*3B
$GPGGA,092556.10,5157.88993772,N,04806.04519365,E,1,34,0.5,100.3843,M,-1.6217,M,02,999*4E
$GNVTG,96.124,T,85.064,M,5.16191,N,9.55985,K,D*39
$GPGGA,092556.20,5157.88992160,N,04806.04542307,E,1,34,0.5,100.3909,M,-1.6217,M,02,999*4C
$GNVTG,96.487,T,85.427,M,5.14168,N,9.52239,K,D*39
$GPGGA,092556.30,5157.88990481,N,04806.04565739,E,1,34,0.5,100.3951,M,-1.6217,M,02,999*44
$GNVTG,96.615,T,85.556,M,5.25269,N,9.72798,K,D*3B
$GPGGA,092556.40,5157.88988314,N,04806.04589508,E,1,34,0.5,100.3868,M,-1.6217,M,02,999*48
$GNVTG,98.397,T,87.337,M,5.35005,N,9.90830,K,D*31
$GPGGA,092556.50,5157.88986355,N,04806.04613970,E,1,34,0.5,100.3793,M,-1.6217,M,02,999*4A
$GNVTG,97.389,T,86.329,M,5.49284,N,10.17274,K,D*02
$GPGGA,092556.60,5157.88983667,N,04806.04638567,E,1,34,0.5,100.3659,M,-1.6217,M,01,999*4F
$GNVTG,100.032,T,88.973,M,5.56224,N,10.30127,K,D*31
$GPGGA,092556.70,5157.88981267,N,04806.04663446,E,1,34,0.5,100.3525,M,-1.6217,M,01,999*4C
$GNVTG,98.875,T,87.815,M,5.60717,N,10.38447,K,D*0F
$GPGGA,092556.80,5157.88979254,N,04806.04688423,E,1,34,0.5,100.3454,M,-1.6217,M,01,999*45
$GNVTG,97.435,T,86.375,M,5.60876,N,10.38742,K,D*0A
$GPGGA,092556.90,5157.88977543,N,04806.04713308,E,1,34,0.5,100.3493,M,-1.6217,M,01,999*4D
$GNVTG,96.351,T,85.292,M,5.57562,N,10.32606,K,D*02
$GPGGA,092557.00,5157.88975673,N,04806.04738423,E,1,34,0.5,100.3690,M,-1.6217,M,02,999*42
$GNZDA,092557.00,02,12,2022,,*77
$GNVTG,96.873,T,85.813,M,5.63304,N,10.43239,K,D*05
$GPGGA,092557.10,5157.88973566,N,04806.04764505,E,1,34,0.5,100.3813,M,-1.6217,M,02,999*4B
$GNVTG,97.449,T,86.389,M,5.85735,N,10.84780,K,D*08
$GPGGA,092557.20,5157.88970770,N,04806.04792246,E,1,34,0.5,100.3835,M,-1.6217,M,02,999*43
$GNVTG,99.266,T,88.207,M,6.25898,N,11.59164,K,D*08
$GPGGA,092557.30,5157.88967416,N,04806.04821374,E,1,34,0.5,100.3688,M,-1.6217,M,02,999*48
$GNVTG,100.559,T,89.499,M,6.59782,N,12.21917,K,D*3D
$GPGGA,092557.40,5157.88963486,N,04806.04851286,E,1,34,0.5,100.3433,M,-1.6217,M,02,999*4B
$GNVTG,102.010,T,90.950,M,6.80968,N,12.61153,K,D*35
$GPGGA,092557.50,5157.88959515,N,04806.04881333,E,1,34,0.5,100.3201,M,-1.6217,M,02,999*4D
$GNVTG,102.075,T,91.015,M,6.84219,N,12.67173,K,D*32
$GPGGA,092557.60,5157.88955327,N,04806.04911883,E,1,34,0.5,100.2990,M,-1.6217,M,01,999*4C
$GNVTG,102.513,T,91.453,M,6.96816,N,12.90503,K,D*3C
$GPGGA,092557.70,5157.88951267,N,04806.04942211,E,1,34,0.5,100.2947,M,-1.6218,M,01,999*4E
$GNVTG,102.227,T,91.167,M,6.91021,N,12.79770,K,D*34
$GPGGA,092557.80,5157.88947413,N,04806.04972746,E,1,34,0.5,100.2901,M,-1.6218,M,01,999*45
$GNVTG,101.547,T,90.486,M,6.93982,N,12.85256,K,D*3D
$GPGGA,092557.90,5157.88943508,N,04806.05003402,E,1,34,0.5,100.2877,M,-1.6218,M,01,999*46
$GNVTG,101.653,T,90.592,M,6.97014,N,12.90870,K,D*37
$GPGGA,092558.00,5157.88939750,N,04806.05033771,E,1,34,0.5,100.2809,M,-1.6218,M,02,999*4C
$GNZDA,092558.00,02,12,2022,,*78
$GNVTG,101.328,T,90.268,M,6.89675,N,12.77279,K,D*38
$GPGGA,092558.10,5157.88935766,N,04806.05063400,E,1,34,0.5,100.2766,M,-1.6218,M,02,999*42
$GNVTG,102.281,T,91.221,M,6.75216,N,12.50500,K,D*3B
$GPGGA,092558.20,5157.88932235,N,04806.05092795,E,1,34,0.5,100.2785,M,-1.6218,M,02,999*49
$GNVTG,101.003,T,89.943,M,6.66829,N,12.34967,K,D*3D
$GPGGA,092558.30,5157.88928064,N,04806.05121555,E,1,34,0.5,100.2782,M,-1.6218,M,02,999*45
$GNVTG,103.212,T,92.151,M,6.57836,N,12.18312,K,D*36
$GPGGA,092558.40,5157.88923930,N,04806.05149920,E,1,34,0.5,100.2772,M,-1.6219,M,02,999*4F
$GNVTG,103.276,T,92.216,M,6.48962,N,12.01877,K,D*3A
$GPGGA,092558.50,5157.88919744,N,04806.05178254,E,1,34,0.5,100.2751,M,-1.6219,M,02,999*41
$GNVTG,103.451,T,92.391,M,6.48734,N,12.01456,K,D*35
$GPGGA,092558.60,5157.88915812,N,04806.05206395,E,1,34,0.5,100.2692,M,-1.6219,M,01,999*49
$GNVTG,102.745,T,91.685,M,6.42445,N,11.89808,K,D*3A
$GPGGA,092558.70,5157.88911393,N,04806.05233943,E,1,34,0.5,100.2711,M,-1.6219,M,01,999*43
$GNVTG,104.557,T,93.496,M,6.33788,N,11.73775,K,D*3B
$GPGGA,092558.80,5157.88907320,N,04806.05260497,E,1,34,0.5,100.2759,M,-1.6219,M,01,999*4D
$GNVTG,103.945,T,92.885,M,6.09246,N,11.28323,K,D*3B
$GPGGA,092558.90,5157.88903276,N,04806.05286668,E,1,34,0.5,100.2852,M,-1.6219,M,01,999*44
$GNVTG,104.046,T,92.986,M,6.00727,N,11.12547,K,D*32
$GPGGA,092559.00,5157.88899426,N,04806.05312634,E,1,34,0.5,100.2921,M,-1.6219,M,02,999*4E
$GNZDA,092559.00,02,12,2022,,*79
$GNVTG,103.494,T,92.434,M,5.94630,N,11.01255,K,D*35
$GPGGA,092559.10,5157.88895899,N,04806.05338730,E,1,34,0.5,100.2894,M,-1.6219,M,02,999*49
$GNVTG,102.341,T,91.281,M,5.94833,N,11.01631,K,D*3B
$GPGGA,092559.20,5157.88891879,N,04806.05364490,E,1,34,0.5,100.2858,M,-1.6219,M,02,999*40
$GNVTG,104.180,T,93.120,M,5.91636,N,10.95710,K,D*38
$GPGGA,092559.30,5157.88888316,N,04806.05390061,E,1,34,0.5,100.2947,M,-1.6219,M,02,999*45
$GNVTG,102.712,T,91.652,M,5.83716,N,10.81041,K,D*35
$GPGGA,092559.40,5157.88884784,N,04806.05415921,E,1,34,0.5,100.3003,M,-1.6219,M,02,999*4E
$GNVTG,102.467,T,91.407,M,5.89762,N,10.92239,K,D*30
$GPGGA,092559.50,5157.88880933,N,04806.05442319,E,1,34,0.5,100.3030,M,-1.6219,M,02,999*4A
$GNVTG,103.287,T,92.227,M,6.03986,N,11.18581,K,D*3C
$GPGGA,092559.60,5157.88877401,N,04806.05469855,E,1,34,0.5,100.2985,M,-1.6219,M,01,999*42
$GNVTG,101.732,T,90.672,M,6.26238,N,11.59792,K,D*3F
$GPGGA,092559.70,5157.88872710,N,04806.05497416,E,1,34,0.5,100.2931,M,-1.6219,M,01,999*40
$GNVTG,105.405,T,94.344,M,6.36606,N,11.78994,K,D*3B
$GPGGA,092559.80,5157.88867981,N,04806.05525048,E,1,34,0.5,100.2827,M,-1.6219,M,01,999*4C
$GNVTG,105.487,T,94.426,M,6.38471,N,11.82447,K,D*38
$GPGGA,092559.90,5157.88862436,N,04806.05552480,E,1,34,0.5,100.2815,M,-1.6219,M,01,999*48
$GNVTG,108.118,T,97.058,M,6.42726,N,11.90328,K,D*39
$GPGGA,092600.00,5157.88856974,N,04806.05579963,E,1,34,0.5,100.2815,M,-1.6219,M,02,999*48
$GNZDA,092600.00,02,12,2022,,*76
$GNVTG,107.836,T,96.776,M,6.42866,N,11.90588,K,D*3E
$GPGGA,092600.10,5157.88851188,N,04806.05607421,E,1,34,0.5,100.2785,M,-1.6219,M,02,999*42
$GNVTG,108.833,T,97.773,M,6.46022,N,11.96433,K,D*3B
$GPGGA,092600.20,5157.88845599,N,04806.05635140,E,1,34,0.5,100.2724,M,-1.6219,M,02,999*48
$GNVTG,108.080,T,97.019,M,6.49287,N,12.02479,K,D*32
$GPGGA,092600.30,5157.88839628,N,04806.05662557,E,1,34,0.5,100.2634,M,-1.6219,M,02,999*4B
$GNVTG,109.419,T,98.359,M,6.47339,N,11.98872,K,D*32
$GPGGA,092600.40,5157.88833627,N,04806.05690074,E,1,34,0.5,100.2564,M,-1.6219,M,02,999*46
$GNVTG,109.444,T,98.384,M,6.49814,N,12.03456,K,D*3B
$GPGGA,092600.50,5157.88827414,N,04806.05718084,E,1,34,0.5,100.2584,M,-1.6220,M,02,999*4A
$GNVTG,109.754,T,98.694,M,6.62718,N,12.27353,K,D*33
$GPGGA,092600.60,5157.88820547,N,04806.05745037,E,1,34,0.5,100.2573,M,-1.6220,M,02,999*41
$GNVTG,112.412,T,101.352,M,6.49224,N,12.02363,K,D*01
$GPGGA,092600.70,5157.88813522,N,04806.05771743,E,1,34,0.5,100.2583,M,-1.6220,M,02,999*4F
$GNVTG,113.068,T,102.008,M,6.46345,N,11.97032,K,D*07
$GPGGA,092600.80,5157.88806146,N,04806.05798510,E,1,34,0.5,100.2507,M,-1.6220,M,02,999*4D
$GNVTG,114.040,T,102.980,M,6.52665,N,12.08736,K,D*07
$GPGGA,092600.90,5157.88798667,N,04806.05825393,E,1,34,0.5,100.2385,M,-1.6220,M,02,999*48
$GNVTG,114.245,T,103.184,M,6.56530,N,12.15893,K,D*06
$GPGGA,092601.00,5157.88790092,N,04806.05852056,E,1,34,0.5,100.2290,M,-1.6220,M,03,999*4A
$GNZDA,092601.00,02,12,2022,,*77
$GNVTG,117.503,T,106.442,M,6.69367,N,12.39668,K,D*06
$GPGGA,092601.10,5157.88782274,N,04806.05879019,E,1,34,0.5,100.2288,M,-1.6220,M,03,999*49
$GNVTG,115.146,T,104.086,M,6.63263,N,12.28362,K,D*0F
$GPGGA,092601.20,5157.88773864,N,04806.05905537,E,1,34,0.5,100.2287,M,-1.6220,M,03,999*43
$GNVTG,117.177,T,106.117,M,6.63767,N,12.29297,K,D*0F
$GPGGA,092601.30,5157.88765433,N,04806.05931346,E,1,34,0.5,100.2315,M,-1.6221,M,03,999*47
$GNVTG,117.871,T,106.810,M,6.50126,N,12.04034,K,D*09
$GPGGA,092601.40,5157.88756827,N,04806.05957020,E,1,34,0.5,100.2291,M,-1.6221,M,03,999*47
$GNVTG,118.486,T,107.425,M,6.50456,N,12.04644,K,D*0A
$GPGGA,092601.50,5157.88747955,N,04806.05982909,E,1,34,0.5,100.2273,M,-1.6221,M,03,999*44
$GNVTG,119.020,T,107.960,M,6.59260,N,12.20950,K,D*09
$GPGGA,092601.60,5157.88739229,N,04806.06009366,E,1,34,0.5,100.2250,M,-1.6221,M,01,999*47
$GNVTG,118.098,T,107.038,M,6.67851,N,12.36859,K,D*05
$GPGGA,092601.70,5157.88730320,N,04806.06035276,E,1,34,0.5,100.2264,M,-1.6221,M,01,999*4F
$GNVTG,119.103,T,108.043,M,6.60316,N,12.22905,K,D*06
$GPGGA,092601.80,5157.88721144,N,04806.06060796,E,1,34,0.5,100.2284,M,-1.6221,M,01,999*45
$GNVTG,120.202,T,109.141,M,6.57520,N,12.17727,K,D*03
$GPGGA,092601.90,5157.88711897,N,04806.06085922,E,1,34,0.5,100.2306,M,-1.6221,M,01,999*41
$GNVTG,120.787,T,109.727,M,6.51272,N,12.06155,K,D*08
$GPGGA,092602.00,5157.88702450,N,04806.06110720,E,1,34,0.5,100.2360,M,-1.6221,M,02,999*4C
$GNZDA,092602.00,02,12,2022,,*74
$GNVTG,121.660,T,110.600,M,6.48755,N,12.01494,K,D*0A
$GPGGA,092602.10,5157.88692914,N,04806.06135445,E,1,34,0.5,100.2372,M,-1.6221,M,02,999*4C
$GNVTG,121.979,T,110.919,M,6.49060,N,12.02060,K,D*06
$GPGGA,092602.20,5157.88683042,N,04806.06160436,E,1,34,0.5,100.2360,M,-1.6222,M,02,999*41
$GNVTG,122.599,T,111.539,M,6.60580,N,12.23393,K,D*04
$GPGGA,092602.30,5157.88673107,N,04806.06185594,E,1,34,0.5,100.2297,M,-1.6222,M,02,999*44
$GNVTG,122.591,T,111.531,M,6.64897,N,12.31389,K,D*03
$GPGGA,092602.40,5157.88662680,N,04806.06210387,E,1,34,0.5,100.2279,M,-1.6222,M,02,999*40
$GNVTG,124.247,T,113.186,M,6.67882,N,12.36918,K,D*01
$GPGGA,092602.50,5157.88652465,N,04806.06235264,E,1,34,0.5,100.2187,M,-1.6222,M,02,999*42
$GNVTG,123.613,T,112.552,M,6.65175,N,12.31905,K,D*07
$GPGGA,092602.60,5157.88642223,N,04806.06260028,E,1,34,0.5,100.2264,M,-1.6222,M,02,999*40
$GNVTG,123.805,T,112.745,M,6.63622,N,12.29028,K,D*06
$GPGGA,092602.70,5157.88632333,N,04806.06285039,E,1,34,0.5,100.2333,M,-1.6222,M,02,999*4E
$GNVTG,122.623,T,111.562,M,6.61267,N,12.24667,K,D*0E
$GPGGA,092602.80,5157.88622273,N,04806.06309883,E,1,34,0.5,100.2467,M,-1.6222,M,02,999*4F
$GNVTG,123.247,T,112.186,M,6.61500,N,12.25098,K,D*05
$GPGGA,092602.90,5157.88611792,N,04806.06335154,E,1,34,0.5,100.2443,M,-1.6222,M,02,999*4E
$GNVTG,123.877,T,112.817,M,6.77786,N,12.55261,K,D*05
$GPGGA,092603.00,5157.88600523,N,04806.06360824,E,1,34,0.5,100.2416,M,-1.6222,M,03,999*41
$GNZDA,092603.00,02,12,2022,,*75
$GNVTG,125.402,T,114.342,M,7.01263,N,12.98739,K,D*07
$GPGGA,092603.10,5157.88588699,N,04806.06387429,E,1,34,0.5,100.2331,M,-1.6222,M,03,999*4B
$GNVTG,125.734,T,114.673,M,7.29833,N,13.51651,K,D*08
$GPGGA,092603.20,5157.88576690,N,04806.06414317,E,1,34,0.5,100.2274,M,-1.6223,M,03,999*46
$GNVTG,125.866,T,114.805,M,7.38831,N,13.68315,K,D*02
$GPGGA,092603.30,5157.88564166,N,04806.06440593,E,1,34,0.5,100.2286,M,-1.6223,M,03,999*4C
$GNVTG,127.655,T,116.594,M,7.39029,N,13.68682,K,D*02
$GPGGA,092603.40,5157.88551698,N,04806.06466813,E,1,34,0.5,100.2251,M,-1.6223,M,03,999*40
$GNVTG,127.588,T,116.528,M,7.36830,N,13.64608,K,D*07
$GPGGA,092603.50,5157.88538218,N,04806.06492325,E,1,34,0.5,100.2226,M,-1.6223,M,03,999*47
$GNVTG,130.542,T,119.482,M,7.47552,N,13.84467,K,D*03
$GPGGA,092603.60,5157.88524523,N,04806.06518333,E,1,34,0.5,100.2177,M,-1.6223,M,03,999*45
$GNVTG,130.445,T,119.384,M,7.61008,N,14.09387,K,D*01
$GPGGA,092603.70,5157.88510271,N,04806.06544123,E,1,34,0.5,100.2140,M,-1.6223,M,03,999*4D
$GNVTG,131.818,T,120.758,M,7.70568,N,14.27091,K,D*00
$GPGGA,092603.80,5157.88495919,N,04806.06570053,E,1,34,0.5,100.2087,M,-1.6223,M,03,999*40
$GNVTG,131.861,T,120.800,M,7.75258,N,14.35778,K,D*0E
$GPGGA,092603.90,5157.88481635,N,04806.06595644,E,1,34,0.5,100.2076,M,-1.6223,M,03,999*40
$GNVTG,132.101,T,121.040,M,7.68038,N,14.22406,K,D*0B
$GPGGA,092604.00,5157.88467393,N,04806.06621082,E,1,34,0.5,100.2038,M,-1.6224,M,04,999*45
$GNZDA,092604.00,02,12,2022,,*72
$GNVTG,132.187,T,121.127,M,7.64476,N,14.15809,K,D*00
$GPGGA,092604.10,5157.88452718,N,04806.06646013,E,1,34,0.5,100.2063,M,-1.6224,M,04,999*42
$GNVTG,133.617,T,122.557,M,7.66843,N,14.20194,K,D*0C
$GPGGA,092604.20,5157.88437566,N,04806.06670870,E,1,34,0.5,100.1981,M,-1.6224,M,04,999*47
$GNVTG,134.621,T,123.560,M,7.77632,N,14.40174,K,D*0B
$GPGGA,092604.30,5157.88421558,N,04806.06695073,E,1,34,0.5,100.1908,M,-1.6224,M,04,999*4D
$GNVTG,136.954,T,125.894,M,7.89587,N,14.62315,K,D*0D
$GPGGA,092604.40,5157.88405415,N,04806.06719294,E,1,34,0.5,100.1790,M,-1.6224,M,04,999*45
$GNVTG,137.176,T,126.115,M,7.93440,N,14.69451,K,D*0A
$GPGGA,092604.50,5157.88389072,N,04806.06742660,E,1,34,0.5,100.1753,M,-1.6224,M,04,999*4C
$GNVTG,138.549,T,127.489,M,7.85993,N,14.55659,K,D*0D
$GPGGA,092604.60,5157.88373128,N,04806.06766373,E,1,34,0.5,100.1759,M,-1.6225,M,04,999*4E
$GNVTG,137.426,T,126.365,M,7.80492,N,14.45471,K,D*0E
$GPGGA,092604.70,5157.88356799,N,04806.06789020,E,1,34,0.5,100.1777,M,-1.6225,M,04,999*4C
$GNVTG,139.412,T,128.351,M,7.75119,N,14.35521,K,D*01
$GPGGA,092604.80,5157.88340721,N,04806.06811596,E,1,34,0.5,100.1866,M,-1.6225,M,04,999*4E
$GNVTG,139.063,T,128.002,M,7.67218,N,14.20888,K,D*0D
$GPGGA,092604.90,5157.88324110,N,04806.06833267,E,1,34,0.5,100.1905,M,-1.6225,M,01,999*41
$GNVTG,141.135,T,130.075,M,7.69041,N,14.24265,K,D*04
$GPGGA,092605.00,5157.88307056,N,04806.06854755,E,1,34,0.5,100.1917,M,-1.6225,M,02,999*4E
$GNZDA,092605.00,02,12,2022,,*73
$GNVTG,142.104,T,131.044,M,7.79023,N,14.42751,K,D*01
$GPGGA,092605.10,5157.88289734,N,04806.06876521,E,1,34,0.5,100.1821,M,-1.6225,M,02,999*4E
$GNVTG,142.183,T,131.122,M,7.90479,N,14.63968,K,D*04
$GPGGA,092605.20,5157.88271953,N,04806.06897808,E,1,34,0.5,100.1689,M,-1.6226,M,02,999*43
$GNVTG,143.516,T,132.456,M,7.97200,N,14.76415,K,D*04
$GPGGA,092605.30,5157.88254169,N,04806.06918628,E,1,34,0.5,100.1601,M,-1.6226,M,02,999*4E
$GNVTG,144.125,T,133.064,M,7.91133,N,14.65177,K,D*05
$GPGGA,092605.40,5157.88236390,N,04806.06939005,E,1,34,0.5,100.1590,M,-1.6226,M,02,999*48
$GNVTG,144.703,T,133.642,M,7.85260,N,14.54301,K,D*04
$GPGGA,092605.50,5157.88218531,N,04806.06958203,E,1,34,0.5,100.1717,M,-1.6226,M,02,999*46
$GNVTG,146.414,T,135.353,M,7.72810,N,14.31245,K,D*07
$GPGGA,092605.60,5157.88200771,N,04806.06976544,E,1,34,0.5,100.1853,M,-1.6226,M,02,999*4D
$GNVTG,147.465,T,136.404,M,7.59388,N,14.06387,K,D*0E
$GPGGA,092605.70,5157.88182806,N,04806.06994571,E,1,34,0.5,100.1916,M,-1.6227,M,02,999*41
$GNVTG,148.207,T,137.146,M,7.61923,N,14.11081,K,D*02
$GPGGA,092605.80,5157.88164042,N,04806.07012624,E,1,34,0.5,100.1811,M,-1.6227,M,02,999*4D
$GNVTG,149.277,T,138.216,M,7.86847,N,14.57240,K,D*0A
$GPGGA,092605.90,5157.88144944,N,04806.07031289,E,1,34,0.5,100.1698,M,-1.6227,M,01,999*4F
$GNVTG,148.880,T,137.819,M,8.04181,N,14.89343,K,D*04
$GPGGA,092606.00,5157.88125393,N,04806.07049121,E,1,34,0.5,100.1551,M,-1.6227,M,02,999*49
$GNZDA,092606.00,02,12,2022,,*70
$GNVTG,150.603,T,139.542,M,8.08944,N,14.98164,K,D*0F
$GPGGA,092606.10,5157.88106426,N,04806.07066665,E,1,34,0.5,100.1529,M,-1.6227,M,02,999*45
$GNVTG,150.257,T,139.196,M,7.87467,N,14.58388,K,D*0F
$GPGGA,092606.20,5157.88086910,N,04806.07081964,E,1,34,0.5,100.1545,M,-1.6227,M,02,999*4A
$GNVTG,154.162,T,143.101,M,7.81663,N,14.47640,K,D*02
$GPGGA,092606.30,5157.88067337,N,04806.07096741,E,1,34,0.5,100.1548,M,-1.6227,M,02,999*49
$GNVTG,154.998,T,143.937,M,7.78525,N,14.41829,K,D*02
$GPGGA,092606.40,5157.88047442,N,04806.07110919,E,1,34,0.5,100.1557,M,-1.6227,M,02,999*4B
$GNVTG,156.240,T,145.179,M,7.83587,N,14.51204,K,D*02
$GPGGA,092606.50,5157.88027149,N,04806.07124241,E,1,34,0.5,100.1552,M,-1.6227,M,02,999*46
$GNVTG,157.927,T,146.866,M,7.89396,N,14.61961,K,D*0A
$GPGGA,092606.60,5157.88007113,N,04806.07137558,E,1,34,0.5,100.1489,M,-1.6228,M,02,999*4D
$GNVTG,157.679,T,146.618,M,7.80753,N,14.45954,K,D*0D
$GPGGA,092606.70,5157.87986530,N,04806.07149665,E,1,34,0.5,100.1390,M,-1.6228,M,02,999*4D
$GNVTG,160.030,T,148.969,M,7.89428,N,14.62020,K,D*0C
$GPGGA,092606.80,5157.87966047,N,04806.07161919,E,1,34,0.5,100.1276,M,-1.6228,M,02,999*4E
$GNVTG,159.720,T,148.659,M,7.87188,N,14.57873,K,D*05
$GPGGA,092606.90,5157.87945303,N,04806.07172829,E,1,34,0.5,100.1287,M,-1.6228,M,02,999*43
$GNVTG,162.001,T,150.940,M,7.86255,N,14.56144,K,D*09
$GPGGA,092607.00,5157.87924781,N,04806.07183170,E,1,34,0.5,100.1318,M,-1.6228,M,03,999*4F
$GNZDA,092607.00,02,12,2022,,*71
$GNVTG,162.710,T,151.649,M,7.74788,N,14.34907,K,D*0A
$GPGGA,092607.10,5157.87903888,N,04806.07192282,E,1,34,0.5,100.1436,M,-1.6229,M,03,999*49
$GNVTG,164.922,T,153.862,M,7.80009,N,14.44577,K,D*0F
$GPGGA,092607.20,5157.87882812,N,04806.07201103,E,1,34,0.5,100.1318,M,-1.6229,M,03,999*49
$GNVTG,165.504,T,154.443,M,7.84733,N,14.53326,K,D*00
$GPGGA,092607.30,5157.87861569,N,04806.07209687,E,1,34,0.5,100.1223,M,-1.6229,M,03,999*4E
$GNVTG,165.985,T,154.924,M,7.89268,N,14.61725,K,D*09
$GPGGA,092607.40,5157.87840353,N,04806.07217994,E,1,34,0.5,100.1068,M,-1.6229,M,03,999*4A
$GNVTG,166.403,T,155.342,M,7.86827,N,14.57204,K,D*0F
$GPGGA,092607.50,5157.87818987,N,04806.07225458,E,1,34,0.5,100.1017,M,-1.6229,M,03,999*41
$GNVTG,167.822,T,156.761,M,7.87942,N,14.59269,K,D*01
$GPGGA,092607.60,5157.87797274,N,04806.07232144,E,1,34,0.5,100.0923,M,-1.6229,M,01,999*4E
$GNVTG,169.230,T,158.169,M,7.96756,N,14.75593,K,D*01
$GPGGA,092607.70,5157.87775870,N,04806.07238341,E,1,34,0.5,100.0954,M,-1.6229,M,01,999*40
$GNVTG,169.860,T,158.799,M,7.83795,N,14.51588,K,D*00
$GPGGA,092607.80,5157.87754474,N,04806.07244017,E,1,34,0.5,100.1000,M,-1.6229,M,01,999*46
$GNVTG,170.695,T,159.634,M,7.81572,N,14.47471,K,D*02
$GPGGA,092607.90,5157.87733183,N,04806.07249347,E,1,34,0.5,100.0901,M,-1.6230,M,01,999*41
$GNVTG,171.210,T,160.149,M,7.76653,N,14.38361,K,D*0B
$GPGGA,092608.00,5157.87711483,N,04806.07253666,E,1,34,0.5,100.0825,M,-1.6230,M,02,999*4B
$GNZDA,092608.00,02,12,2022,,*7E
$GNVTG,172.990,T,161.928,M,7.88112,N,14.59584,K,D*0C
$GPGGA,092608.10,5157.87689688,N,04806.07257487,E,1,34,0.5,100.0785,M,-1.6230,M,02,999*4F
$GNVTG,173.819,T,162.758,M,7.90253,N,14.63548,K,D*01
$GPGGA,092608.20,5157.87667643,N,04806.07259852,E,1,34,0.5,100.0731,M,-1.6230,M,02,999*4E
$GNVTG,176.209,T,165.148,M,7.96431,N,14.74990,K,D*04
$GPGGA,092608.30,5157.87645826,N,04806.07262653,E,1,34,0.5,100.0656,M,-1.6230,M,02,999*45
$GNVTG,175.465,T,164.404,M,7.88924,N,14.61088,K,D*05
$GPGGA,092608.40,5157.87623709,N,04806.07263543,E,1,34,0.5,100.0599,M,-1.6231,M,02,999*42
$GNVTG,178.577,T,167.516,M,7.97520,N,14.77008,K,D*02
$GPGGA,092608.50,5157.87601987,N,04806.07265237,E,1,34,0.5,100.0667,M,-1.6231,M,02,999*4B
$GNVTG,177.242,T,166.180,M,7.83956,N,14.51886,K,D*04
$GPGGA,092608.60,5157.87580272,N,04806.07265848,E,1,34,0.5,100.0731,M,-1.6231,M,01,999*40
$GNVTG,179.004,T,167.943,M,7.82905,N,14.49939,K,D*07
$GPGGA,092608.70,5157.87558512,N,04806.07266270,E,1,34,0.5,100.0800,M,-1.6231,M,01,999*4A
$GNVTG,179.313,T,168.252,M,7.84461,N,14.52822,K,D*0E
$GPGGA,092608.80,5157.87536450,N,04806.07265815,E,1,34,0.5,100.0739,M,-1.6231,M,01,999*45
$GNVTG,180.731,T,169.670,M,7.95367,N,14.73020,K,D*01
$GPGGA,092608.90,5157.87514223,N,04806.07265812,E,1,34,0.5,100.0596,M,-1.6231,M,01,999*46
$GNVTG,180.004,T,168.943,M,8.01231,N,14.83880,K,D*03
$GPGGA,092609.00,5157.87491723,N,04806.07264786,E,1,34,0.5,100.0398,M,-1.6231,M,02,999*4F
$GNZDA,092609.00,02,12,2022,,*7F
$GNVTG,181.613,T,170.552,M,8.11412,N,15.02735,K,D*08
$GPGGA,092609.10,5157.87469340,N,04806.07263516,E,1,34,0.5,100.0353,M,-1.6231,M,02,999*43
$GNVTG,182.008,T,170.947,M,8.07368,N,14.95246,K,D*0C
$GPGGA,092609.20,5157.87447400,N,04806.07261792,E,1,34,0.5,100.0407,M,-1.6232,M,02,999*46
$GNVTG,182.779,T,171.718,M,7.91823,N,14.66457,K,D*06
$GPGGA,092609.30,5157.87425822,N,04806.07259998,E,1,34,0.5,100.0504,M,-1.6232,M,02,999*42
$GNVTG,182.940,T,171.879,M,7.78858,N,14.42445,K,D*04
$GPGGA,092609.40,5157.87404055,N,04806.07256746,E,1,34,0.5,100.0484,M,-1.6232,M,02,999*45
$GNVTG,185.272,T,174.211,M,7.88011,N,14.59396,K,D*01
$GPGGA,092609.50,5157.87382110,N,04806.07254084,E,1,34,0.5,100.0451,M,-1.6232,M,02,999*4E
$GNVTG,184.286,T,173.225,M,7.93266,N,14.69129,K,D*06
$GPGGA,092609.60,5157.87360083,N,04806.07249813,E,1,34,0.5,100.0368,M,-1.6232,M,02,999*4D
$GNVTG,186.829,T,175.768,M,7.99716,N,14.81073,K,D*01
$GPGGA,092609.70,5157.87337956,N,04806.07245416,E,1,34,0.5,100.0310,M,-1.6232,M,02,999*45
$GNVTG,186.999,T,175.937,M,8.03621,N,14.88307,K,D*0F
$GPGGA,092609.80,5157.87315956,N,04806.07241216,E,1,34,0.5,100.0247,M,-1.6232,M,02,999*4B
$GNVTG,186.726,T,175.665,M,7.98572,N,14.78956,K,D*04
$GPGGA,092609.90,5157.87294083,N,04806.07236414,E,1,34,0.5,100.0238,M,-1.6232,M,02,999*4F
$GNVTG,187.723,T,176.662,M,7.95693,N,14.73624,K,D*04
$GPGGA,092610.00,5157.87272245,N,04806.07231866,E,1,34,0.5,100.0211,M,-1.6233,M,03,999*4B
$GNZDA,092610.00,02,12,2022,,*77
$GNVTG,187.330,T,176.268,M,7.93679,N,14.69894,K,D*00
$GPGGA,092610.10,5157.87250445,N,04806.07226737,E,1,34,0.5,100.0289,M,-1.6233,M,03,999*40
$GNVTG,188.270,T,177.208,M,7.94137,N,14.70741,K,D*08
$GPGGA,092610.20,5157.87228593,N,04806.07221190,E,1,34,0.5,100.0355,M,-1.6233,M,03,999*4A
$GNVTG,188.912,T,177.851,M,7.97340,N,14.76674,K,D*01
$GPGGA,092610.30,5157.87206382,N,04806.07214854,E,1,34,0.5,100.0370,M,-1.6233,M,03,999*41
$GNVTG,189.993,T,178.932,M,8.13011,N,15.05696,K,D*0F
$GPGGA,092610.40,5157.87183728,N,04806.07207273,E,1,34,0.5,100.0237,M,-1.6234,M,03,999*44
$GNVTG,191.680,T,180.619,M,8.33865,N,15.44318,K,D*05
$GPGGA,092610.50,5157.87160690,N,04806.07199329,E,1,34,0.5,100.0066,M,-1.6234,M,03,999*46
$GNVTG,192.025,T,180.963,M,8.49133,N,15.72594,K,D*0D
$GPGGA,092610.60,5157.87137411,N,04806.07192006,E,1,34,0.5,99.9974,M,-1.6234,M,03,999*7B
$GNVTG,190.996,T,179.935,M,8.54848,N,15.83178,K,D*0A
$GPGGA,092610.70,5157.87113998,N,04806.07184632,E,1,34,0.5,99.9911,M,-1.6234,M,03,999*75
$GNVTG,191.010,T,179.948,M,8.59815,N,15.92377,K,D*0E
$GPGGA,092610.80,5157.87090393,N,04806.07177496,E,1,34,0.5,99.9894,M,-1.6234,M,03,999*7D
$GNVTG,190.577,T,179.516,M,8.65639,N,16.03164,K,D*08
$GPGGA,092610.90,5157.87066805,N,04806.07169713,E,1,34,0.5,99.9840,M,-1.6234,M,03,999*79
$GNVTG,191.521,T,180.459,M,8.67788,N,16.07144,K,D*09
$GPGGA,092611.00,5157.87042686,N,04806.07161912,E,1,34,0.5,99.9764,M,-1.6234,M,04,999*7B
$GNZDA,092611.00,02,12,2022,,*76
$GNVTG,191.300,T,180.238,M,8.86617,N,16.42015,K,D*01
$GPGGA,092611.10,5157.87018105,N,04806.07153568,E,1,34,0.5,99.9696,M,-1.6234,M,04,999*75
$GNVTG,191.842,T,180.781,M,9.05371,N,16.76747,K,D*03
$GPGGA,092611.20,5157.86993260,N,04806.07145316,E,1,34,0.5,99.9688,M,-1.6235,M,04,999*7B
$GNVTG,191.595,T,180.533,M,9.14254,N,16.93198,K,D*06
$GPGGA,092611.30,5157.86968294,N,04806.07136398,E,1,34,0.5,99.9727,M,-1.6235,M,04,999*73
$GNVTG,192.443,T,181.381,M,9.21654,N,17.06903,K,D*04
$GPGGA,092611.40,5157.86942858,N,04806.07126473,E,1,34,0.5,99.9785,M,-1.6235,M,04,999*7D
$GNVTG,193.552,T,182.491,M,9.43170,N,17.46751,K,D*09
$GPGGA,092611.50,5157.86916415,N,04806.07116523,E,1,34,0.5,99.9687,M,-1.6235,M,04,999*7C
$GNVTG,193.084,T,182.023,M,9.78635,N,18.12431,K,D*0F
$GPGGA,092611.60,5157.86889580,N,04806.07105699,E,1,34,0.5,99.9631,M,-1.6235,M,04,999*78
$GNVTG,193.992,T,182.931,M,9.96911,N,18.46279,K,D*09
$GPGGA,092611.70,5157.86862245,N,04806.07094994,E,1,34,0.5,99.9485,M,-1.6235,M,04,999*74
$GNVTG,193.598,T,182.537,M,10.13821,N,18.77597,K,D*37
$GPGGA,092611.80,5157.86834688,N,04806.07084266,E,1,34,0.5,99.9335,M,-1.6235,M,04,999*76
$GNVTG,193.522,T,182.460,M,10.21663,N,18.92120,K,D*3F
$GPGGA,092611.90,5157.86807161,N,04806.07073313,E,1,34,0.5,99.9235,M,-1.6236,M,04,999*7E
$GNVTG,193.810,T,182.748,M,10.21853,N,18.92472,K,D*35
$GPGGA,092612.00,5157.86779650,N,04806.07062623,E,1,34,0.5,99.9184,M,-1.6236,M,05,999*79
$GNZDA,092612.00,02,12,2022,,*75
$GNVTG,193.497,T,182.435,M,10.19897,N,18.88849,K,D*33
$GPGGA,092612.10,5157.86752205,N,04806.07050983,E,1,34,0.5,99.9171,M,-1.6236,M,05,999*7B
$GNVTG,194.681,T,183.619,M,10.22705,N,18.94049,K,D*35
$GPGGA,092612.20,5157.86724711,N,04806.07039106,E,1,34,0.5,99.9212,M,-1.6236,M,05,999*75
$GNVTG,194.942,T,183.880,M,10.25800,N,18.99782,K,D*3B
$GPGGA,092612.30,5157.86697337,N,04806.07027026,E,1,34,0.5,99.9300,M,-1.6236,M,05,999*73
$GNVTG,195.248,T,184.186,M,10.22801,N,18.94227,K,D*32
$GPGGA,092612.40,5157.86670460,N,04806.07015085,E,1,34,0.5,99.9459,M,-1.6236,M,05,999*7B
$GNVTG,195.348,T,184.286,M,10.04664,N,18.60638,K,D*38
$GPGGA,092612.50,5157.86643690,N,04806.07003209,E,1,34,0.5,99.9669,M,-1.6236,M,05,999*77
$GNVTG,195.325,T,184.263,M,10.00617,N,18.53142,K,D*32
$GPGGA,092612.60,5157.86617103,N,04806.06991401,E,1,34,0.5,99.9841,M,-1.6237,M,05,999*70
$GNVTG,195.341,T,184.280,M,9.93814,N,18.40543,K,D*05
$GPGGA,092612.70,5157.86590144,N,04806.06979362,E,1,34,0.5,99.9982,M,-1.6237,M,05,999*74
$GNVTG,195.423,T,184.362,M,10.08111,N,18.67022,K,D*3A
$GPGGA,092612.80,5157.86562698,N,04806.06967366,E,1,34,0.5,100.0055,M,-1.6237,M,05,999*40
$GNVTG,195.108,T,184.047,M,10.24801,N,18.97931,K,D*30
$GPGGA,092612.90,5157.86535057,N,04806.06955516,E,1,34,0.5,100.0061,M,-1.6237,M,05,999*41
$GNVTG,194.833,T,183.771,M,10.30763,N,19.08974,K,D*3D
$GPGGA,092613.00,5157.86507199,N,04806.06943044,E,1,34,0.5,99.9984,M,-1.6237,M,06,999*77
$GNZDA,092613.00,02,12,2022,,*74
$GNVTG,195.460,T,184.399,M,10.41915,N,19.29626,K,D*31
$GPGGA,092613.10,5157.86479499,N,04806.06930808,E,1,34,0.5,100.0027,M,-1.6237,M,06,999*47
$GNVTG,195.263,T,184.202,M,10.35038,N,19.16890,K,D*3D
$GPGGA,092613.20,5157.86452011,N,04806.06918408,E,1,34,0.5,100.0041,M,-1.6238,M,06,999*40
$GNVTG,195.570,T,184.509,M,10.28635,N,19.05032,K,D*31
$GPGGA,092613.30,5157.86424423,N,04806.06906654,E,1,34,0.5,100.0046,M,-1.6238,M,06,999*46
$GNVTG,194.745,T,183.684,M,10.28363,N,19.04528,K,D*3C
$GPGGA,092613.40,5157.86396628,N,04806.06894470,E,1,34,0.5,100.0006,M,-1.6238,M,06,999*4C
$GNVTG,195.151,T,184.090,M,10.38042,N,19.22453,K,D*32
$GPGGA,092613.50,5157.86368884,N,04806.06882616,E,1,34,0.5,100.0035,M,-1.6238,M,06,999*41
$GNVTG,194.785,T,183.724,M,10.34367,N,19.15648,K,D*37
$GPGGA,092613.60,5157.86341434,N,04806.06870689,E,1,34,0.5,100.0114,M,-1.6238,M,06,999*47
$GNVTG,195.025,T,183.963,M,10.24550,N,18.97467,K,D*31
$GPGGA,092613.70,5157.86314087,N,04806.06858204,E,1,34,0.5,100.0227,M,-1.6238,M,06,999*42
$GNVTG,195.749,T,184.688,M,10.24271,N,18.96951,K,D*3C
$GPGGA,092613.80,5157.86286661,N,04806.06846240,E,1,34,0.5,100.0275,M,-1.6238,M,06,999*41
$GNVTG,195.081,T,184.020,M,10.23888,N,18.96241,K,D*3A
$GPGGA,092613.90,5157.86259023,N,04806.06832835,E,1,34,0.5,100.0267,M,-1.6239,M,01,999*4C
$GNVTG,196.679,T,185.618,M,10.40078,N,19.26225,K,D*3E
$GPGGA,092614.00,5157.86231242,N,04806.06820179,E,1,34,0.5,100.0195,M,-1.6239,M,02,999*46
$GNZDA,092614.00,02,12,2022,,*73
$GNVTG,195.717,T,184.656,M,10.40336,N,19.26702,K,D*36
$GPGGA,092614.10,5157.86203327,N,04806.06807368,E,1,34,0.5,100.0096,M,-1.6239,M,02,999*41
$GNVTG,195.828,T,184.767,M,10.45957,N,19.37112,K,D*39
$GPGGA,092614.20,5157.86175446,N,04806.06794645,E,1,34,0.5,100.0004,M,-1.6240,M,02,999*4A
$GNVTG,195.742,T,184.681,M,10.44223,N,19.33901,K,D*34
$GPGGA,092614.30,5157.86147426,N,04806.06781433,E,1,34,0.5,99.9859,M,-1.6240,M,02,999*73
$GNVTG,196.240,T,185.178,M,10.52030,N,19.48359,K,D*3C
$GPGGA,092614.40,5157.86119068,N,04806.06768801,E,1,34,0.5,99.9725,M,-1.6239,M,02,999*71
$GNVTG,195.385,T,184.324,M,10.60240,N,19.63564,K,D*38
$GPGGA,092614.50,5157.86090815,N,04806.06755924,E,1,34,0.5,99.9563,M,-1.6239,M,02,999*7A
$GNVTG,195.724,T,184.662,M,10.58070,N,19.59545,K,D*30
$GPGGA,092614.60,5157.86062890,N,04806.06743596,E,1,34,0.5,99.9483,M,-1.6240,M,02,999*7A
$GNVTG,195.254,T,184.192,M,10.43412,N,19.32399,K,D*3A
$GPGGA,092614.70,5157.86035037,N,04806.06730600,E,1,34,0.5,99.9405,M,-1.6240,M,02,999*7A
$GNVTG,196.079,T,185.017,M,10.44903,N,19.35161,K,D*31
$GPGGA,092614.80,5157.86007179,N,04806.06718054,E,1,34,0.5,99.9345,M,-1.6240,M,02,999*71
$GNVTG,195.547,T,184.485,M,10.42383,N,19.30494,K,D*3A
$GPGGA,092614.90,5157.85979461,N,04806.06704391,E,1,34,0.5,99.9242,M,-1.6241,M,01,999*7C
$GNVTG,196.936,T,185.874,M,10.44472,N,19.34361,K,D*36
$GPGGA,092615.00,5157.85952044,N,04806.06690888,E,1,34,0.5,99.9299,M,-1.6241,M,02,999*74
$GNZDA,092615.00,02,12,2022,,*72
$GNVTG,196.921,T,185.860,M,10.33057,N,19.13222,K,D*35
$GPGGA,092615.10,5157.85924875,N,04806.06677819,E,1,34,0.5,99.9398,M,-1.6241,M,02,999*7F
$GNVTG,196.548,T,185.487,M,10.21708,N,18.92203,K,D*36
$GPGGA,092615.20,5157.85897787,N,04806.06664943,E,1,34,0.5,99.9521,M,-1.6241,M,02,999*7F
$GNVTG,196.364,T,185.303,M,10.17689,N,18.84760,K,D*3F
$GPGGA,092615.30,5157.85870849,N,04806.06651155,E,1,34,0.5,99.9599,M,-1.6241,M,02,999*70
$GNVTG,197.547,T,186.485,M,10.18443,N,18.86156,K,D*39
$GPGGA,092615.40,5157.85843805,N,04806.06636614,E,1,34,0.5,99.9638,M,-1.6241,M,02,999*74
$GNVTG,198.372,T,187.311,M,10.27265,N,19.02495,K,D*34
$GPGGA,092615.50,5157.85816414,N,04806.06622309,E,1,34,0.5,99.9546,M,-1.6241,M,01,999*7C
$GNVTG,197.881,T,186.819,M,10.37507,N,19.21463,K,D*34
$GPGGA,092615.60,5157.85789209,N,04806.06608247,E,1,34,0.5,99.9517,M,-1.6242,M,01,999*78
$GNVTG,197.708,T,186.646,M,10.29457,N,19.06555,K,D*34
$GPGGA,092615.70,5157.85761883,N,04806.06594540,E,1,34,0.5,99.9490,M,-1.6242,M,01,999*7F
$GNVTG,197.217,T,186.155,M,10.31260,N,19.09894,K,D*3E
$GPGGA,092615.80,5157.85734700,N,04806.06581262,E,1,34,0.5,99.9606,M,-1.6242,M,01,999*7A
$GNVTG,196.790,T,185.728,M,10.23543,N,18.95602,K,D*3A
$GPGGA,092615.90,5157.85707691,N,04806.06567711,E,1,34,0.5,99.9689,M,-1.6242,M,01,999*7C
$GNVTG,197.220,T,186.159,M,10.19309,N,18.87760,K,D*31
$GPGGA,092616.00,5157.85680603,N,04806.06554165,E,1,34,0.5,99.9747,M,-1.6242,M,02,999*76
$GNZDA,092616.00,02,12,2022,,*71
$GNVTG,197.166,T,186.104,M,10.21990,N,18.92725,K,D*3C
$GPGGA,092616.10,5157.85653739,N,04806.06540536,E,1,34,0.5,99.9838,M,-1.6242,M,02,999*71
$GNVTG,197.401,T,186.340,M,10.14837,N,18.79477,K,D*31
$GPGGA,092616.20,5157.85626955,N,04806.06527488,E,1,34,0.5,100.0004,M,-1.6243,M,02,999*4F
$GNVTG,196.748,T,185.687,M,10.08304,N,18.67380,K,D*35
$GPGGA,092616.30,5157.85600014,N,04806.06513737,E,1,34,0.5,100.0119,M,-1.6243,M,02,999*4B
$GNVTG,197.499,T,186.438,M,10.18281,N,18.85856,K,D*3F
$GPGGA,092616.40,5157.85572739,N,04806.06500157,E,1,34,0.5,100.0109,M,-1.6243,M,02,999*41
$GNVTG,197.096,T,186.035,M,10.28654,N,19.05067,K,D*31
$GPGGA,092616.50,5157.85545135,N,04806.06485492,E,1,34,0.5,99.9985,M,-1.6243,M,01,999*79
$GNVTG,198.169,T,187.108,M,10.47317,N,19.39631,K,D*30
$GPGGA,092616.60,5157.85517242,N,04806.06471945,E,1,34,0.5,99.9894,M,-1.6243,M,01,999*73
$GNVTG,196.700,T,185.639,M,10.49744,N,19.44126,K,D*37
$GPGGA,092616.70,5157.85489463,N,04806.06457996,E,1,34,0.5,99.9768,M,-1.6243,M,01,999*77
$GNVTG,197.233,T,186.172,M,10.48444,N,19.41719,K,D*35
$GPGGA,092616.80,5157.85461460,N,04806.06444356,E,1,34,0.5,99.9568,M,-1.6243,M,01,999*7B
$GNVTG,196.745,T,185.683,M,10.54173,N,19.52328,K,D*32
$GPGGA,092616.90,5157.85433260,N,04806.06429968,E,1,34,0.5,99.9378,M,-1.6244,M,01,999*77
$GNVTG,197.494,T,186.432,M,10.65860,N,19.73974,K,D*3E
$GPGGA,092617.00,5157.85405224,N,04806.06415588,E,1,34,0.5,99.9239,M,-1.6244,M,02,999*70
$GNZDA,092617.00,02,12,2022,,*70
$GNVTG,197.580,T,186.519,M,10.60149,N,19.63396,K,D*32
$GPGGA,092617.10,5157.85377215,N,04806.06401333,E,1,34,0.5,99.9070,M,-1.6244,M,02,999*7D
$GNVTG,197.453,T,186.391,M,10.58386,N,19.60130,K,D*3C
$GPGGA,092617.20,5157.85349410,N,04806.06387546,E,1,34,0.5,99.8937,M,-1.6244,M,02,999*76
$GNVTG,197.029,T,185.968,M,10.48298,N,19.41447,K,D*33
$GPGGA,092617.30,5157.85321936,N,04806.06373864,E,1,34,0.5,99.8898,M,-1.6244,M,02,999*72
$GNVTG,197.099,T,186.038,M,10.36158,N,19.18964,K,D*31
$GPGGA,092617.40,5157.85294524,N,04806.06360400,E,1,34,0.5,99.9008,M,-1.6244,M,02,999*79
$GNVTG,196.879,T,185.817,M,10.32665,N,19.12495,K,D*34
$GPGGA,092617.50,5157.85267522,N,04806.06345991,E,1,34,0.5,99.9083,M,-1.6244,M,01,999*70
$GNVTG,198.245,T,187.183,M,10.24870,N,18.98060,K,D*39
$GPGGA,092617.60,5157.85240208,N,04806.06332969,E,1,34,0.5,99.9072,M,-1.6245,M,01,999*71
$GNVTG,196.410,T,185.348,M,10.26435,N,19.00958,K,D*3B
$GPGGA,092617.70,5157.85212457,N,04806.06320150,E,1,34,0.5,99.8958,M,-1.6245,M,01,999*7A
$GNVTG,195.925,T,184.864,M,10.40301,N,19.26638,K,D*3A
$GPGGA,092617.80,5157.85184771,N,04806.06305752,E,1,34,0.5,99.8821,M,-1.6245,M,01,999*72
$GNVTG,197.809,T,186.747,M,10.48255,N,19.41368,K,D*32
$GPGGA,092617.90,5157.85156868,N,04806.06292952,E,1,34,0.5,99.8737,M,-1.6245,M,01,999*72
$GNVTG,195.822,T,184.760,M,10.45473,N,19.36216,K,D*39
$GPGGA,092618.00,5157.85128791,N,04806.06279620,E,1,34,0.5,99.8583,M,-1.6245,M,02,999*75
$GNZDA,092618.00,02,12,2022,,*7F
$GNVTG,196.348,T,185.286,M,10.54766,N,19.53428,K,D*3E
$GPGGA,092618.10,5157.85100250,N,04806.06267071,E,1,34,0.5,99.8394,M,-1.6245,M,02,999*7B
$GNVTG,195.196,T,184.134,M,10.66114,N,19.74444,K,D*3A
$GPGGA,092618.20,5157.85072243,N,04806.06253840,E,1,34,0.5,99.8304,M,-1.6246,M,02,999*79
$GNVTG,196.268,T,185.206,M,10.51717,N,19.47780,K,D*32
$GPGGA,092618.30,5157.85044442,N,04806.06241624,E,1,34,0.5,99.8250,M,-1.6246,M,02,999*75
$GNVTG,195.187,T,184.125,M,10.38425,N,19.23163,K,D*34
$GPGGA,092618.40,5157.85016690,N,04806.06230189,E,1,34,0.5,99.8267,M,-1.6246,M,02,999*7A
$GNVTG,194.280,T,183.218,M,10.32316,N,19.11850,K,D*3E
$GPGGA,092618.50,5157.84989157,N,04806.06218095,E,1,34,0.5,99.8196,M,-1.6246,M,02,999*72
$GNVTG,195.182,T,184.120,M,10.28391,N,19.04580,K,D*31
$GPGGA,092618.60,5157.84961289,N,04806.06205316,E,1,34,0.5,99.8245,M,-1.6246,M,01,999*7D
$GNVTG,195.815,T,184.753,M,10.44112,N,19.33696,K,D*37
$GPGGA,092618.70,5157.84933589,N,04806.06193252,E,1,34,0.5,99.8268,M,-1.6246,M,01,999*7E
$GNVTG,195.058,T,183.996,M,10.34023,N,19.15011,K,D*3F
$GPGGA,092618.80,5157.84906171,N,04806.06181072,E,1,34,0.5,99.8327,M,-1.6246,M,01,999*7D
$GNVTG,195.345,T,184.283,M,10.24922,N,18.98155,K,D*34
$GPGGA,092618.90,5157.84878459,N,04806.06168914,E,1,34,0.5,99.8340,M,-1.6247,M,01,999*75
$GNVTG,195.164,T,184.102,M,10.35005,N,19.16829,K,D*36
$GPGGA,092619.00,5157.84850779,N,04806.06157149,E,1,34,0.5,99.8323,M,-1.6247,M,02,999*7C
$GNZDA,092619.00,02,12,2022,,*7E
$GNVTG,194.712,T,183.650,M,10.31613,N,19.10548,K,D*3E
$GPGGA,092619.10,5157.84823093,N,04806.06144828,E,1,34,0.5,99.8280,M,-1.6247,M,02,999*7E
$GNVTG,195.371,T,184.309,M,10.35057,N,19.16925,K,D*33
$GPGGA,092619.20,5157.84795490,N,04806.06132227,E,1,34,0.5,99.8255,M,-1.6247,M,02,999*74
$GNVTG,195.748,T,184.686,M,10.33830,N,19.14653,K,D*3C
$GPGGA,092619.30,5157.84767907,N,04806.06119581,E,1,34,0.5,99.8314,M,-1.6247,M,02,999*7D
$GNVTG,195.813,T,184.751,M,10.33428,N,19.13909,K,D*34
$GPGGA,092619.40,5157.84740186,N,04806.06106905,E,1,34,0.5,99.8498,M,-1.6247,M,02,999*73
$GNVTG,195.773,T,184.711,M,10.38403,N,19.23123,K,D*38
$GPGGA,092619.50,5157.84712214,N,04806.06094270,E,1,34,0.5,99.8695,M,-1.6248,M,02,999*7E
$GNVTG,195.591,T,184.529,M,10.46855,N,19.38776,K,D*35
$GPGGA,092619.60,5157.84683919,N,04806.06080388,E,1,34,0.5,99.8762,M,-1.6248,M,01,999*7B
$GNVTG,196.861,T,185.799,M,10.65796,N,19.73854,K,D*3D
$GPGGA,092619.70,5157.84654885,N,04806.06067504,E,1,34,0.5,99.8839,M,-1.6248,M,01,999*7E
$GNVTG,195.329,T,184.267,M,10.85220,N,20.09827,K,D*39
$GPGGA,092619.80,5157.84625622,N,04806.06053693,E,1,34,0.5,99.8772,M,-1.6248,M,01,999*7E
$GNVTG,196.254,T,185.192,M,10.98795,N,20.34968,K,D*3A
$GPGGA,092619.90,5157.84595686,N,04806.06039528,E,1,34,0.5,99.8606,M,-1.6248,M,01,999*74
$GNVTG,196.294,T,185.232,M,11.24278,N,20.82163,K,D*31
$GPGGA,092620.00,5157.84565433,N,04806.06025461,E,1,34,0.5,99.8433,M,-1.6248,M,02,999*72
$GNZDA,092620.00,02,12,2022,,*74
$GNVTG,196.026,T,184.964,M,11.34672,N,21.01413,K,D*34
$GPGGA,092620.10,5157.84535018,N,04806.06011310,E,1,34,0.5,99.8412,M,-1.6248,M,02,999*7E
$GNVTG,196.034,T,184.972,M,11.40800,N,21.12761,K,D*3C
$GPGGA,092620.20,5157.84504864,N,04806.05997341,E,1,34,0.5,99.8545,M,-1.6249,M,02,999*7E
$GNVTG,195.970,T,184.908,M,11.30620,N,20.93909,K,D*38
$GPGGA,092620.30,5157.84475005,N,04806.05983345,E,1,34,0.5,99.8728,M,-1.6249,M,02,999*7F
$GNVTG,196.148,T,185.087,M,11.20581,N,20.75316,K,D*32
$GPGGA,092620.40,5157.84444958,N,04806.05969113,E,1,34,0.5,99.8864,M,-1.6249,M,02,999*79
$GNVTG,196.309,T,185.247,M,11.28552,N,20.90078,K,D*3D
$GPGGA,092620.50,5157.84414465,N,04806.05954366,E,1,34,0.5,99.8899,M,-1.6250,M,02,999*7A
$GNVTG,196.633,T,185.571,M,11.47217,N,21.24647,K,D*38
$GPGGA,092620.60,5157.84383708,N,04806.05939177,E,1,34,0.5,99.8845,M,-1.6250,M,01,999*73
$GNVTG,196.965,T,185.903,M,11.63199,N,21.54245,K,D*3F
$GPGGA,092620.70,5157.84352582,N,04806.05924194,E,1,34,0.5,99.8810,M,-1.6249,M,01,999*77
$GNVTG,196.559,T,185.497,M,11.70625,N,21.67997,K,D*3A
$GPGGA,092620.80,5157.84321401,N,04806.05908355,E,1,34,0.5,99.8846,M,-1.6250,M,01,999*7C
$GNVTG,197.424,T,186.362,M,11.78061,N,21.81769,K,D*37
$GPGGA,092620.90,5157.84289941,N,04806.05894044,E,1,34,0.5,99.8844,M,-1.6250,M,01,999*72
$GNVTG,195.690,T,184.629,M,11.77999,N,21.81655,K,D*3F
$GPGGA,092621.00,5157.84258424,N,04806.05878493,E,1,34,0.5,99.8754,M,-1.6250,M,02,999*79
$GNZDA,092621.00,02,12,2022,,*75
$GNVTG,196.954,T,185.892,M,11.87784,N,21.99777,K,D*31
$GPGGA,092621.10,5157.84227039,N,04806.05863809,E,1,34,0.5,99.8725,M,-1.6251,M,02,999*7A
$GNVTG,196.118,T,185.056,M,11.77631,N,21.80972,K,D*32
$GPGGA,092621.20,5157.84195775,N,04806.05848892,E,1,34,0.5,99.8764,M,-1.6251,M,02,999*72
$GNVTG,196.424,T,185.362,M,11.74914,N,21.75941,K,D*3D
$GPGGA,092621.30,5157.84164422,N,04806.05835585,E,1,34,0.5,99.8842,M,-1.6251,M,02,999*76
$GNVTG,194.685,T,183.624,M,11.68392,N,21.63861,K,D*3A
$GPGGA,092621.40,5157.84133062,N,04806.05821306,E,1,34,0.5,99.8887,M,-1.6251,M,02,999*72
$GNVTG,195.712,T,184.651,M,11.74384,N,21.74959,K,D*37
$GPGGA,092621.50,5157.84101415,N,04806.05807711,E,1,34,0.5,99.8934,M,-1.6251,M,02,999*79
$GNVTG,194.859,T,183.797,M,11.80307,N,21.85929,K,D*33
$GPGGA,092621.60,5157.84069461,N,04806.05795159,E,1,34,0.5,99.8964,M,-1.6252,M,01,999*7D
$GNVTG,193.635,T,182.573,M,11.85310,N,21.95195,K,D*34
$GPGGA,092621.70,5157.84037964,N,04806.05780517,E,1,34,0.5,99.8927,M,-1.6252,M,01,999*72
$GNVTG,196.031,T,184.970,M,11.81283,N,21.87736,K,D*39
$GPGGA,092621.80,5157.84006297,N,04806.05768025,E,1,34,0.5,99.8963,M,-1.6252,M,01,999*7A
$GNVTG,193.686,T,182.624,M,11.74935,N,21.75980,K,D*3C
$GPGGA,092621.90,5157.83974832,N,04806.05753113,E,1,34,0.5,99.8962,M,-1.6252,M,01,999*78
$GNVTG,196.327,T,185.265,M,11.81906,N,21.88890,K,D*39
$GPGGA,092622.00,5157.83942977,N,04806.05740119,E,1,34,0.5,99.8938,M,-1.6252,M,02,999*73
$GNZDA,092622.00,02,12,2022,,*76
$GNVTG,194.135,T,183.073,M,11.84209,N,21.93155,K,D*32
$GPGGA,092622.10,5157.83911106,N,04806.05725942,E,1,34,0.5,99.8878,M,-1.6252,M,02,999*7A
$GNVTG,195.369,T,184.308,M,11.91481,N,22.06622,K,D*3A
$GPGGA,092622.20,5157.83879259,N,04806.05712579,E,1,34,0.5,99.8876,M,-1.6253,M,02,999*70
$GNVTG,194.529,T,183.467,M,11.85963,N,21.96404,K,D*38
$GPGGA,092622.30,5157.83847692,N,04806.05699331,E,1,34,0.5,99.8957,M,-1.6253,M,02,999*75
$GNVTG,194.533,T,183.472,M,11.75511,N,21.77045,K,D*3F
$GPGGA,092622.40,5157.83815932,N,04806.05685609,E,1,34,0.5,99.8896,M,-1.6253,M,02,999*7F
$GNVTG,194.945,T,183.883,M,11.84999,N,21.94619,K,D*30
$GPGGA,092622.50,5157.83783637,N,04806.05672912,E,1,34,0.5,99.8753,M,-1.6253,M,02,999*7F
$GNVTG,193.646,T,182.585,M,11.98051,N,22.18790,K,D*36
$GPGGA,092622.60,5157.83751688,N,04806.05658928,E,1,34,0.5,99.8619,M,-1.6253,M,01,999*7A
$GNVTG,195.135,T,184.074,M,11.93046,N,22.09520,K,D*3A
$GPGGA,092622.70,5157.83719845,N,04806.05646224,E,1,34,0.5,99.8709,M,-1.6253,M,01,999*70
$GNVTG,193.841,T,182.779,M,11.82197,N,21.89429,K,D*34
$GPGGA,092622.80,5157.83688320,N,04806.05633266,E,1,34,0.5,99.8845,M,-1.6254,M,01,999*7A
$GNVTG,194.248,T,183.187,M,11.72416,N,21.71315,K,D*3A
$GPGGA,092622.90,5157.83656693,N,04806.05619998,E,1,34,0.5,99.8805,M,-1.6254,M,01,999*73
$GNVTG,194.529,T,183.468,M,11.77766,N,21.81222,K,D*35
$GPGGA,092623.00,5157.83624537,N,04806.05607974,E,1,34,0.5,99.8711,M,-1.6254,M,02,999*77
$GNZDA,092623.00,02,12,2022,,*77
$GNVTG,193.002,T,181.940,M,11.89740,N,22.03398,K,D*37
$GPGGA,092623.10,5157.83592930,N,04806.05594841,E,1,34,0.5,99.8753,M,-1.6254,M,02,999*7B
$GNVTG,194.400,T,183.338,M,11.76274,N,21.78459,K,D*36
$GPGGA,092623.20,5157.83561685,N,04806.05582408,E,1,34,0.5,99.8964,M,-1.6254,M,02,999*79
$GNVTG,193.808,T,182.747,M,11.59794,N,21.47938,K,D*38
$GPGGA,092623.30,5157.83530326,N,04806.05570198,E,1,34,0.5,99.9101,M,-1.6254,M,02,999*7B
$GNVTG,193.524,T,182.462,M,11.62655,N,21.53236,K,D*3B
$GPGGA,092623.40,5157.83498536,N,04806.05557649,E,1,34,0.5,99.9112,M,-1.6255,M,02,999*75
$GNVTG,193.704,T,182.643,M,11.79622,N,21.84659,K,D*37
$GPGGA,092623.50,5157.83466609,N,04806.05545249,E,1,34,0.5,99.9156,M,-1.6255,M,02,999*7D
$GNVTG,193.490,T,182.429,M,11.83583,N,21.91996,K,D*32
$GPGGA,092623.60,5157.83435019,N,04806.05532689,E,1,34,0.5,99.9191,M,-1.6255,M,01,999*7F
$GNVTG,193.800,T,182.739,M,11.72559,N,21.71579,K,D*3F
$GPGGA,092623.70,5157.83403506,N,04806.05520555,E,1,34,0.5,99.9195,M,-1.6255,M,01,999*75
$GNVTG,193.378,T,182.317,M,11.67644,N,21.62476,K,D*34
$GPGGA,092623.80,5157.83371671,N,04806.05508786,E,1,34,0.5,99.9266,M,-1.6255,M,01,999*72
$GNVTG,192.863,T,181.801,M,11.77191,N,21.80158,K,D*30
$GPGGA,092623.90,5157.83339693,N,04806.05497098,E,1,34,0.5,99.9300,M,-1.6256,M,01,999*7E
$GNVTG,192.722,T,181.661,M,11.81773,N,21.88643,K,D*34
$GPGGA,092624.00,5157.83307774,N,04806.05485000,E,1,34,0.5,99.9345,M,-1.6256,M,02,999*75
$GNZDA,092624.00,02,12,2022,,*70
$GNVTG,193.179,T,182.118,M,11.81732,N,21.88568,K,D*38
$GPGGA,092624.10,5157.83275990,N,04806.05473611,E,1,34,0.5,99.9395,M,-1.6256,M,02,999*76
$GNVTG,192.479,T,181.418,M,11.73465,N,21.73257,K,D*39
$GPGGA,092624.20,5157.83244143,N,04806.05461909,E,1,34,0.5,99.9400,M,-1.6257,M,02,999*7E
$GNVTG,192.790,T,181.728,M,11.77234,N,21.80237,K,D*31
$GPGGA,092624.30,5157.83212169,N,04806.05449533,E,1,34,0.5,99.9392,M,-1.6256,M,02,999*76
$GNVTG,193.449,T,182.388,M,11.85118,N,21.94839,K,D*3B
$GPGGA,092624.40,5157.83180083,N,04806.05437328,E,1,34,0.5,99.9382,M,-1.6256,M,02,999*78
$GNVTG,193.222,T,182.161,M,11.88161,N,22.00475,K,D*3C
$GPGGA,092624.50,5157.83148099,N,04806.05425847,E,1,34,0.5,99.9421,M,-1.6257,M,02,999*78
$GNVTG,192.501,T,181.439,M,11.80926,N,21.87074,K,D*3A
$GPGGA,092624.60,5157.83116437,N,04806.05414508,E,1,34,0.5,99.9445,M,-1.6257,M,01,999*75
$GNVTG,192.475,T,181.413,M,11.68906,N,21.64815,K,D*36
$GPGGA,092624.70,5157.83084733,N,04806.05402143,E,1,34,0.5,99.9492,M,-1.6257,M,01,999*7F
$GNVTG,193.549,T,182.488,M,11.75608,N,21.77226,K,D*3D
$GPGGA,092624.80,5157.83052908,N,04806.05390226,E,1,34,0.5,99.9523,M,-1.6258,M,01,999*75
$GNVTG,193.022,T,181.961,M,11.77537,N,21.80799,K,D*38
$GPGGA,092624.90,5157.83021005,N,04806.05378788,E,1,34,0.5,99.9487,M,-1.6258,M,01,999*7C
$GNVTG,192.486,T,181.425,M,11.77896,N,21.81464,K,D*38
$GPGGA,092625.00,5157.82989212,N,04806.05366354,E,1,34,0.5,99.9571,M,-1.6258,M,02,999*7B
$GNZDA,092625.00,02,12,2022,,*71
$GNVTG,193.586,T,182.524,M,11.79062,N,21.83624,K,D*32
$GPGGA,092625.10,5157.82957330,N,04806.05354610,E,1,34,0.5,99.9632,M,-1.6258,M,02,999*78
$GNVTG,192.816,T,181.755,M,11.78645,N,21.82851,K,D*3F
$GPGGA,092625.20,5157.82925641,N,04806.05341750,E,1,34,0.5,99.9651,M,-1.6258,M,02,999*79
$GNVTG,194.078,T,183.016,M,11.77679,N,21.81062,K,D*30
$GPGGA,092625.30,5157.82893680,N,04806.05328919,E,1,34,0.5,99.9608,M,-1.6258,M,02,999*79
$GNVTG,193.928,T,182.867,M,11.87086,N,21.98483,K,D*3E
$GPGGA,092625.40,5157.82861611,N,04806.05315777,E,1,34,0.5,99.9525,M,-1.6259,M,02,999*7E
$GNVTG,194.207,T,183.145,M,11.92514,N,22.08537,K,D*39
$GPGGA,092625.50,5157.82829599,N,04806.05303202,E,1,34,0.5,99.9440,M,-1.6259,M,02,999*72
$GNVTG,193.638,T,182.577,M,11.87431,N,21.99123,K,D*3A
$GPGGA,092625.60,5157.82797477,N,04806.05290497,E,1,34,0.5,99.9301,M,-1.6259,M,01,999*7A
$GNVTG,193.730,T,182.668,M,11.92019,N,22.07619,K,D*3E
$GPGGA,092625.70,5157.82765472,N,04806.05278041,E,1,34,0.5,99.9310,M,-1.6259,M,01,999*7A
$GNVTG,193.518,T,182.456,M,11.86564,N,21.97517,K,D*34
$GPGGA,092625.80,5157.82733516,N,04806.05265894,E,1,34,0.5,99.9314,M,-1.6259,M,01,999*7D
$GNVTG,193.213,T,182.152,M,11.83274,N,21.91423,K,D*3A
$GPGGA,092625.90,5157.82701554,N,04806.05253689,E,1,34,0.5,99.9306,M,-1.6259,M,01,999*7F
$GNVTG,193.273,T,182.212,M,11.83778,N,21.92356,K,D*34
$GPGGA,092626.00,5157.82669552,N,04806.05241233,E,1,34,0.5,99.9292,M,-1.6260,M,02,999*7F
$GNZDA,092626.00,02,12,2022,,*72
$GNVTG,193.521,T,182.460,M,11.86500,N,21.97399,K,D*39
$GPGGA,092626.10,5157.82637769,N,04806.05229066,E,1,34,0.5,99.9299,M,-1.6260,M,02,999*78
$GNVTG,193.303,T,182.242,M,11.77302,N,21.80364,K,D*37
$GPGGA,092626.20,5157.82606072,N,04806.05216836,E,1,34,0.5,99.9319,M,-1.6260,M,02,999*7C
$GNVTG,193.406,T,182.345,M,11.74603,N,21.75365,K,D*3F
$GPGGA,092626.30,5157.82574423,N,04806.05204196,E,1,34,0.5,99.9429,M,-1.6260,M,02,999*7F
$GNVTG,193.861,T,182.799,M,11.75113,N,21.76309,K,D*39
$GPGGA,092626.40,5157.82542727,N,04806.05192138,E,1,34,0.5,99.9492,M,-1.6260,M,02,999*72
$GNVTG,193.222,T,182.161,M,11.73685,N,21.73665,K,D*31
$GPGGA,092626.50,5157.82510913,N,04806.05180120,E,1,34,0.5,99.9577,M,-1.6261,M,02,999*7C
$GNVTG,193.136,T,182.074,M,11.77652,N,21.81012,K,D*37
$GPGGA,092626.60,5157.82479035,N,04806.05167053,E,1,34,0.5,99.9518,M,-1.6261,M,01,999*7A
$GNVTG,194.214,T,183.152,M,11.85437,N,21.95430,K,D*3A
$GPGGA,092626.70,5157.82447197,N,04806.05154033,E,1,34,0.5,99.9440,M,-1.6261,M,01,999*75
$GNVTG,194.176,T,183.115,M,11.83751,N,21.92307,K,D*3F
$GPGGA,092626.80,5157.82415259,N,04806.05140902,E,1,34,0.5,99.9409,M,-1.6261,M,01,999*7F
$GNVTG,194.251,T,183.189,M,11.87883,N,21.99959,K,D*32
$GPGGA,092626.90,5157.82383034,N,04806.05128179,E,1,34,0.5,99.9317,M,-1.6261,M,01,999*7D
$GNVTG,193.705,T,182.643,M,11.95717,N,22.14468,K,D*39
$GPGGA,092627.00,5157.82350758,N,04806.05115263,E,1,34,0.5,99.9194,M,-1.6261,M,02,999*7A
$GNZDA,092627.00,02,12,2022,,*73
$GNVTG,193.886,T,182.825,M,11.98524,N,22.19667,K,D*3C
$GPGGA,092627.10,5157.82318556,N,04806.05102710,E,1,34,0.5,99.9146,M,-1.6262,M,02,999*70
$GNVTG,193.538,T,182.476,M,11.93992,N,22.11274,K,D*3A
$GPGGA,092627.20,5157.82286603,N,04806.05090570,E,1,34,0.5,99.9172,M,-1.6262,M,02,999*7F
$GNVTG,193.207,T,182.146,M,11.83106,N,21.91112,K,D*3B
$GPGGA,092627.30,5157.82254831,N,04806.05078500,E,1,34,0.5,99.9231,M,-1.6262,M,02,999*7B
$GNVTG,193.207,T,182.146,M,11.76403,N,21.78699,K,D*32
$GPGGA,092627.40,5157.82223187,N,04806.05065949,E,1,34,0.5,99.9238,M,-1.6263,M,02,999*7D
$GNVTG,193.768,T,182.707,M,11.74422,N,21.75030,K,D*34
$GPGGA,092627.50,5157.82191588,N,04806.05054056,E,1,34,0.5,99.9305,M,-1.6262,M,02,999*76
$GNVTG,193.086,T,182.025,M,11.69477,N,21.65872,K,D*37
$GPGGA,092627.60,5157.82160144,N,04806.05040949,E,1,34,0.5,99.9463,M,-1.6262,M,01,999*79
$GNVTG,194.445,T,183.384,M,11.70454,N,21.67681,K,D*3B
$GPGGA,092627.70,5157.82128626,N,04806.05028640,E,1,34,0.5,99.9591,M,-1.6263,M,01,999*72
$GNVTG,193.560,T,182.499,M,11.68759,N,21.64542,K,D*38
$GPGGA,092627.80,5157.82096792,N,04806.05016096,E,1,34,0.5,99.9601,M,-1.6263,M,01,999*7D
$GNVTG,193.681,T,182.620,M,11.81098,N,21.87394,K,D*39
$GPGGA,092627.90,5157.82065098,N,04806.05003720,E,1,34,0.5,99.9611,M,-1.6263,M,01,999*72
$GNVTG,193.562,T,182.500,M,11.75260,N,21.76582,K,D*37
$GPGGA,092628.00,5157.82033419,N,04806.04991613,E,1,34,0.5,99.9688,M,-1.6264,M,02,999*7C
$GNZDA,092628.00,02,12,2022,,*7C
$GNVTG,193.281,T,182.220,M,11.73378,N,21.73096,K,D*33
$GPGGA,092628.10,5157.82001654,N,04806.04979359,E,1,34,0.5,99.9688,M,-1.6264,M,02,999*7A
$GNVTG,193.405,T,182.343,M,11.77112,N,21.80011,K,D*34
$GPGGA,092628.20,5157.81969756,N,04806.04967615,E,1,34,0.5,99.9734,M,-1.6264,M,02,999*7A
$GNVTG,192.811,T,181.750,M,11.79238,N,21.83949,K,D*3B
